[
  {"id": 14, "name": "HOSPITAL", "lat": 39.159686, "lng": -0.414966},
  {"id": 16, "name": "AV. MEDITERRANIA-DIPUTACIO", "lat": 39.161628, "lng": -0.42511},
  {"id": 18, "name": "AV. DELS ESPORTS-CIPFP LLUIS SUÑER", "lat": 39.166203, "lng": -0.430935},
  {"id": 20, "name": "AV. PARE POMPILI-IES JOSEP Mª PARRA", "lat": 39.157896, "lng": -0.428985},
  {"id": 21, "name": "AV. PARE POMPILI-HORT DE GORRETA (A ESTACIO)", "lat": 39.156086, "lng": -0.427893},
  {"id": 22, "name": "JAUME D'OLID", "lat": 39.15606, "lng": -0.430341},
  {"id": 23, "name": "CAMIL DOLZ- J. PAU", "lat": 39.153391, "lng": -0.430948},
  {"id": 24, "name": "HORT DELS FRARES-PL. PRIMER DE MAIG", "lat": 39.150161, "lng": -0.43154},
  {"id": 25, "name": "HORT DELS FRARES-CENTRE DE SALUT II", "lat": 39.150656, "lng": -0.433728},
  {"id": 82, "name": "DR. FERRAN-BENIMUSLEM", "lat": 39.153797, "lng": -0.433179},
  {"id": 83, "name": "GV. COMUNITAT VALENCIANA-I. S. TULELL", "lat": 39.156635, "lng": -0.435731},
  {"id": 26, "name": "SANTS. PATRONS - CORREUS", "lat": 39.151577, "lng": -0.438012},
  {"id": 27, "name": "PLAÇA DEL REGNE", "lat": 39.149855, "lng": -0.438875},
  {"id": 1, "name": "ESTACIO RENFE", "lat": 39.153858, "lng": -0.450553},
  {"id": 2, "name": "RONDA SEQUIA REIAL D'ALZIRA-CENTRE DE SALUT", "lat": 39.14553, "lng": -0.438945},
  {"id": 3, "name": "PLAÇA DEL REGNE (A HOSPITAL)", "lat": 39.149363, "lng": -0.438956},
  {"id": 4, "name": "PLAÇA MAJOR (A HOSPITAL)", "lat": 39.150243, "lng": -0.43696},
  {"id": 5, "name": "PEREZ GALDÓS", "lat": 39.149623, "lng": -0.433932},
  {"id": 6, "name": "GANDIA-DR. FLEMING", "lat": 39.148475, "lng": -0.43127},
  {"id": 7, "name": "ALQUENENCIA-AV. DEL PARC", "lat": 39.15029, "lng": -0.430608},
  {"id": 8, "name": "PERE ESPLUGUES-MARE DE DEU DEL LLUCH", "lat": 39.152721, "lng": -0.43044},
  {"id": 9, "name": "PERE ESPLUGUES-FAVARETA", "lat": 39.153823, "lng": -0.430301},
  {"id": 10, "name": "PERE ESPLUGUES-JAUME D'OLID", "lat": 39.155921, "lng": -0.430105},
  {"id": 11, "name": "PERE ESPLUGUES-ESPERANÇA", "lat": 39.158081, "lng": -0.429818},
  {"id": 12, "name": "GENERAL ESPARTERO", "lat": 39.160385, "lng": -0.429076},
  {"id": 13, "name": "AV. MEDITERRANIA-RESIDENCIA", "lat": 39.160643, "lng": -0.421791}
]
